[{"City":"Chicago","Country":"United States","CountryCode":"US","Airports":["ORD","MDW"],"Lat":"41.882","Long":"-87.829"},{"City":"Frankfurt","Country":"Germany","CountryCode":"DE","Airports":["FRA"],"Lat":"50.026","Long":"8.543"},{"City":"Beijing","Country":"China","CountryCode":"CN","Airports":["PEK","NAY"],"Lat":"39.931","Long":"116.486"},{"City":"Los Angeles","Country":"United States","CountryCode":"US","Airports":["LAX"],"Lat":"33.943","Long":"-118.408"},{"City":"Denver","Country":"United States","CountryCode":"US","Airports":["DEN"],"Lat":"39.862","Long":"-104.673"},{"City":"Amsterdam","Country":"Netherlands","CountryCode":"NL","Airports":["AMS"],"Lat":"52.309","Long":"4.764"},{"City":"Seoul","Country":"South Korea","CountryCode":"KR","Airports":["ICN","GMP"],"Lat":"37.514","Long":"126.621"},{"City":"Atlanta","Country":"United States","CountryCode":"US","Airports":["ATL"],"Lat":"33.637","Long":"-84.428"},{"City":"Singapore","Country":"Singapore","CountryCode":"SG","Airports":["SIN"],"Lat":"1.35","Long":"103.994"},{"City":"Munich","Country":"Germany","CountryCode":"DE","Airports":["MUC"],"Lat":"48.354","Long":"11.786"},{"City":"Madrid","Country":"Spain","CountryCode":"ES","Airports":["MAD"],"Lat":"40.494","Long":"-3.567"},{"City":"Hong Kong","Country":"Hong Kong","CountryCode":"HK","Airports":["HKG"],"Lat":"22.309","Long":"113.915"},{"City":"Dubai","Country":"United Arab Emirates","CountryCode":"AE","Airports":["DXB"],"Lat":"25.253","Long":"55.364"},{"City":"Guangzhou","Country":"China","CountryCode":"CN","Airports":["CAN"],"Lat":"23.392","Long":"113.299"},{"City":"Vienna","Country":"Austria","CountryCode":"AT","Airports":["VIE"],"Lat":"48.11","Long":"16.57"},{"City":"Bangkok","Country":"Thailand","CountryCode":"TH","Airports":["BKK"],"Lat":"13.681","Long":"100.747"},{"City":"Toronto","Country":"Canada","CountryCode":"CA","Airports":["YYZ"],"Lat":"43.677","Long":"-79.631"},{"City":"Barcelona","Country":"Spain","CountryCode":"ES","Airports":["BCN"],"Lat":"41.297","Long":"2.078"},{"City":"Istanbul","Country":"Turkey","CountryCode":"TR","Airports":["IST","SAW"],"Lat":"40.938","Long":"29.062"},{"City":"Dallas","Country":"United States","CountryCode":"US","Airports":["DFW"],"Lat":"32.897","Long":"-97.038"},{"City":"Tokyo","Country":"Japan","CountryCode":"JP","Airports":["NRT","HND"],"Lat":"35.658","Long":"140.083"},{"City":"Delhi","Country":"India","CountryCode":"IN","Airports":["DEL"],"Lat":"28.567","Long":"77.103"},{"City":"Houston","Country":"United States","CountryCode":"US","Airports":["IAH","HOU"],"Lat":"29.815","Long":"-95.31"},{"City":"San Francisco","Country":"United States","CountryCode":"US","Airports":["SFO"],"Lat":"37.619","Long":"-122.375"},{"City":"Charlotte","Country":"United States","CountryCode":"US","Airports":["CLT"],"Lat":"35.214","Long":"-80.943"},{"City":"Zurich","Country":"Switzerland","CountryCode":"CH","Airports":["ZRH"],"Lat":"47.465","Long":"8.549"},{"City":"Manchester","Country":"United Kingdom","CountryCode":"GB","Airports":["MAN"],"Lat":"53.354","Long":"-2.275"},{"City":"Moscow","Country":"Russia","CountryCode":"RU","Airports":["DME","SVO","VKO"],"Lat":"55.658","Long":"37.527"},{"City":"Brussels","Country":"Belgium","CountryCode":"BE","Airports":["BRU"],"Lat":"50.901","Long":"4.484"},{"City":"Taipei","Country":"Taiwan","CountryCode":"TW","Airports":["TPE","TSA"],"Lat":"25.074","Long":"121.393"},{"City":"Dusseldorf","Country":"Germany","CountryCode":"DE","Airports":["DUS"],"Lat":"51.289","Long":"6.767"},{"City":"Newark","Country":"United States","CountryCode":"US","Airports":["EWR"],"Lat":"40.693","Long":"-74.169"},{"City":"Chengdu","Country":"China","CountryCode":"CN","Airports":["CTU"],"Lat":"30.579","Long":"103.947"},{"City":"Miami","Country":"United States","CountryCode":"US","Airports":["MIA"],"Lat":"25.793","Long":"-80.291"},{"City":"Bombay","Country":"India","CountryCode":"IN","Airports":["BOM"],"Lat":"19.089","Long":"72.868"},{"City":"Detroit","Country":"United States","CountryCode":"US","Airports":["DTW"],"Lat":"42.212","Long":"-83.353"},{"City":"Copenhagen","Country":"Denmark","CountryCode":"DK","Airports":["CPH"],"Lat":"55.618","Long":"12.656"},{"City":"Minneapolis","Country":"United States","CountryCode":"US","Airports":["MSP"],"Lat":"44.882","Long":"-93.222"},{"City":"Mexico City","Country":"Mexico","CountryCode":"MX","Airports":["MEX"],"Lat":"19.436","Long":"-99.072"},{"City":"Shanghai","Country":"China","CountryCode":"CN","Airports":["PVG","SHA"],"Lat":"31.171","Long":"121.571"},{"City":"Kuala Lumpur","Country":"Malaysia","CountryCode":"MY","Airports":["KUL","SZB"],"Lat":"2.938","Long":"101.63"},{"City":"Philadelphia","Country":"United States","CountryCode":"US","Airports":["PHL"],"Lat":"39.872","Long":"-75.241"},{"City":"Phoenix","Country":"United States","CountryCode":"US","Airports":["PHX"],"Lat":"33.434","Long":"-112.012"},{"City":"Shenzhen","Country":"China","CountryCode":"CN","Airports":["SZX"],"Lat":"22.639","Long":"113.811"},{"City":"Las Vegas","Country":"United States","CountryCode":"US","Airports":["LAS"],"Lat":"36.08","Long":"-115.152"},{"City":"Milano","Country":"Italy","CountryCode":"IT","Airports":["MXP"],"Lat":"45.631","Long":"8.728"},{"City":"Abu Dhabi","Country":"United Arab Emirates","CountryCode":"AE","Airports":["AUH"],"Lat":"24.433","Long":"54.651"},{"City":"Sydney","Country":"Australia","CountryCode":"AU","Airports":["SYD"],"Lat":"-33.946","Long":"151.177"},{"City":"Xi'an","Country":"China","CountryCode":"CN","Airports":["XIY"],"Lat":"34.447","Long":"108.752"},{"City":"Chongqing","Country":"China","CountryCode":"CN","Airports":["CKG"],"Lat":"29.719","Long":"106.642"},{"City":"Palma de Mallorca","Country":"Spain","CountryCode":"ES","Airports":["PMI"],"Lat":"39.554","Long":"2.728"},{"City":"Orlando","Country":"United States","CountryCode":"US","Airports":["MCO"],"Lat":"28.429","Long":"-81.309"},{"City":"Kunming","Country":"China","CountryCode":"CN","Airports":["KMG"],"Lat":"24.992","Long":"102.744"},{"City":"Lisbon","Country":"Portugal","CountryCode":"PT","Airports":["LIS"],"Lat":"38.781","Long":"-9.136"},{"City":"Stockholm","Country":"Sweden","CountryCode":"SE","Airports":["ARN","NYO","BMA"],"Lat":"59.265","Long":"17.591"},{"City":"Manila","Country":"Philippines","CountryCode":"PH","Airports":["MNL"],"Lat":"14.509","Long":"121.02"},{"City":"St. Petersburg","Country":"Russia","CountryCode":"RU","Airports":["LED"],"Lat":"59.8","Long":"30.263"},{"City":"Hangzhou","Country":"China","CountryCode":"CN","Airports":["HGH"],"Lat":"30.23","Long":"120.434"},{"City":"Boston","Country":"United States","CountryCode":"US","Airports":["BOS"],"Lat":"42.364","Long":"-71.005"},{"City":"Paris","Country":"France","CountryCode":"FR","Airports":["CDG","ORY"],"Lat":"48.869","Long":"2.455"},{"City":"Xiamen","Country":"China","CountryCode":"CN","Airports":["XMN"],"Lat":"24.544","Long":"118.128"},{"City":"Seattle","Country":"United States","CountryCode":"US","Airports":["SEA"],"Lat":"47.449","Long":"-122.309"},{"City":"Helsinki","Country":"Finland","CountryCode":"FI","Airports":["HEL"],"Lat":"60.317","Long":"24.963"},{"City":"Montreal","Country":"Canada","CountryCode":"CA","Airports":["YUL"],"Lat":"45.471","Long":"-73.741"},{"City":"Malaga","Country":"Spain","CountryCode":"ES","Airports":["AGP"],"Lat":"36.675","Long":"-4.499"},{"City":"Jeddah","Country":"Saudi Arabia","CountryCode":"SA","Airports":["JED"],"Lat":"21.68","Long":"39.157"},{"City":"Dublin","Country":"Ireland","CountryCode":"IE","Airports":["DUB"],"Lat":"53.421","Long":"-6.27"},{"City":"Fort Lauderdale","Country":"United States","CountryCode":"US","Airports":["FLL"],"Lat":"26.073","Long":"-80.153"},{"City":"Qingdao","Country":"China","CountryCode":"CN","Airports":["TAO"],"Lat":"36.266","Long":"120.374"},{"City":"Geneva","Country":"Switzerland","CountryCode":"CH","Airports":["GVA"],"Lat":"46.238","Long":"6.109"},{"City":"Gran Canaria","Country":"Spain","CountryCode":"ES","Airports":["LPA"],"Lat":"27.932","Long":"-15.387"},{"City":"Prague","Country":"Czech Republic","CountryCode":"CZ","Airports":["PRG"],"Lat":"50.101","Long":"14.26"},{"City":"Vancouver","Country":"Canada","CountryCode":"CA","Airports":["YVR"],"Lat":"49.194","Long":"-123.184"},{"City":"Wuhan","Country":"China","CountryCode":"CN","Airports":["WUH"],"Lat":"30.784","Long":"114.208"},{"City":"Changcha","Country":"China","CountryCode":"CN","Airports":["CSX"],"Lat":"28.189","Long":"113.22"},{"City":"Kiev","Country":"Ukraine","CountryCode":"UA","Airports":["KBP"],"Lat":"50.345","Long":"30.895"},{"City":"Oslo","Country":"Norway","CountryCode":"NO","Airports":["OSL"],"Lat":"60.194","Long":"11.1"},{"City":"Johannesburg","Country":"South Africa","CountryCode":"ZA","Airports":["JNB"],"Lat":"-26.139","Long":"28.246"},{"City":"Osaka","Country":"Japan","CountryCode":"JP","Airports":["KIX","ITM"],"Lat":"34.61","Long":"135.341"},{"City":"Cancun","Country":"Mexico","CountryCode":"MX","Airports":["CUN"],"Lat":"21.037","Long":"-86.877"},{"City":"New York","Country":"United States","CountryCode":"US","Airports":["JFK","LGA"],"Lat":"40.708","Long":"-73.826"},{"City":"Nanjing","Country":"China","CountryCode":"CN","Airports":["NKG"],"Lat":"31.742","Long":"118.862"},{"City":"Doha","Country":"Qatar","CountryCode":"QA","Airports":["DOH"],"Lat":"25.261","Long":"51.565"},{"City":"Athens","Country":"Greece","CountryCode":"GR","Airports":["ATH"],"Lat":"37.936","Long":"23.944"},{"City":"Salt Lake City","Country":"United States","CountryCode":"US","Airports":["SLC"],"Lat":"40.788","Long":"-111.978"},{"City":"Tenerife","Country":"Spain","CountryCode":"ES","Airports":["TFS","TFN"],"Lat":"28.264","Long":"-16.457"},{"City":"Cairo","Country":"Egypt","CountryCode":"EG","Airports":["CAI"],"Lat":"30.122","Long":"31.406"},{"City":"Birmingham","Country":"United Kingdom","CountryCode":"GB","Airports":["BHX"],"Lat":"52.454","Long":"-1.748"},{"City":"Hamburg","Country":"Germany","CountryCode":"DE","Airports":["HAM"],"Lat":"53.63","Long":"9.988"},{"City":"Warsaw","Country":"Poland","CountryCode":"PL","Airports":["WAW"],"Lat":"52.166","Long":"20.967"},{"City":"Brisbane","Country":"Australia","CountryCode":"AU","Airports":["BNE"],"Lat":"-27.384","Long":"153.118"},{"City":"Stuttgart","Country":"Germany","CountryCode":"DE","Airports":["STR"],"Lat":"48.69","Long":"9.222"},{"City":"Auckland","Country":"New Zealand","CountryCode":"NZ","Airports":["AKL"],"Lat":"-37.008","Long":"174.792"},{"City":"London","Country":"United Kingdom","CountryCode":"GB","Airports":["LHR","LGW","STN","LTN","LCY"],"Lat":"51.578","Long":"-0.146"},{"City":"Riyadh","Country":"Saudi Arabia","CountryCode":"SA","Airports":["RUH"],"Lat":"24.958","Long":"46.699"},{"City":"Washington","Country":"United States","CountryCode":"US","Airports":["IAD","DCA"],"Lat":"38.898","Long":"-77.247"},{"City":"Dalian","Country":"China","CountryCode":"CN","Airports":["DLC"],"Lat":"38.966","Long":"121.539"},{"City":"Lyon","Country":"France","CountryCode":"FR","Airports":["LYS"],"Lat":"45.726","Long":"5.091"},{"City":"Urumqi","Country":"China","CountryCode":"CN","Airports":["URC"],"Lat":"43.907","Long":"87.474"},{"City":"Jakarta","Country":"Indonesia","CountryCode":"ID","Airports":["CGK"],"Lat":"-6.126","Long":"106.656"},{"City":"Nairobi","Country":"Kenya","CountryCode":"KE","Airports":["NBO"],"Lat":"-1.319","Long":"36.928"},{"City":"Alicante","Country":"Spain","CountryCode":"ES","Airports":["ALC"],"Lat":"38.282","Long":"-0.558"},{"City":"Melbourne","Country":"Australia","CountryCode":"AU","Airports":["MEL"],"Lat":"-37.673","Long":"144.843"},{"City":"Bogota","Country":"Colombia","CountryCode":"CO","Airports":["BOG"],"Lat":"4.702","Long":"-74.147"},{"City":"Nice","Country":"France","CountryCode":"FR","Airports":["NCE"],"Lat":"43.658","Long":"7.216"},{"City":"Amman","Country":"Jordan","CountryCode":"JO","Airports":["AMM"],"Lat":"31.723","Long":"35.993"},{"City":"Honolulu","Country":"United States","CountryCode":"US","Airports":["HNL"],"Lat":"21.319","Long":"-157.922"},{"City":"Portland","Country":"United States","CountryCode":"US","Airports":["PDX"],"Lat":"45.589","Long":"-122.598"},{"City":"Lima","Country":"Peru","CountryCode":"PE","Airports":["LIM"],"Lat":"-12.022","Long":"-77.114"},{"City":"Brasilia","Country":"Brazil","CountryCode":"BR","Airports":["BSB"],"Lat":"-15.871","Long":"-47.919"},{"City":"Calgary","Country":"Canada","CountryCode":"CA","Airports":["YYC"],"Lat":"51.114","Long":"-114.02"},{"City":"Jinan","Country":"China","CountryCode":"CN","Airports":["TNA"],"Lat":"36.857","Long":"117.216"},{"City":"Edinburgh","Country":"United Kingdom","CountryCode":"GB","Airports":["EDI"],"Lat":"55.95","Long":"-3.373"},{"City":"Tel-aviv","Country":"Israel","CountryCode":"IL","Airports":["TLV"],"Lat":"32.011","Long":"34.887"},{"City":"Zhengzhou","Country":"China","CountryCode":"CN","Airports":["CGO"],"Lat":"34.52","Long":"113.841"},{"City":"Ho Chi Minh City","Country":"Vietnam","CountryCode":"VN","Airports":["SGN"],"Lat":"10.819","Long":"106.652"},{"City":"Kuwait","Country":"Kuwait","CountryCode":"KW","Airports":["KWI"],"Lat":"29.227","Long":"47.969"},{"City":"Las Palmas","Country":"Spain","CountryCode":"ES","Airports":["ACE"],"Lat":"28.945","Long":"-13.605"},{"City":"Madras","Country":"India","CountryCode":"IN","Airports":["MAA"],"Lat":"12.994","Long":"80.181"},{"City":"Marseille","Country":"France","CountryCode":"FR","Airports":["MRS"],"Lat":"43.436","Long":"5.214"},{"City":"Bahrain","Country":"Bahrain","CountryCode":"BH","Airports":["BAH"],"Lat":"26.271","Long":"50.634"},{"City":"Addis Ababa","Country":"Ethiopia","CountryCode":"ET","Airports":["ADD"],"Lat":"8.978","Long":"38.799"},{"City":"Cologne","Country":"Germany","CountryCode":"DE","Airports":["CGN"],"Lat":"50.866","Long":"7.143"},{"City":"Shenyang","Country":"China","CountryCode":"CN","Airports":["SHE"],"Lat":"41.382","Long":"123.29"},{"City":"Calcutta","Country":"India","CountryCode":"IN","Airports":["CCU"],"Lat":"22.655","Long":"88.447"},{"City":"Baltimore","Country":"United States","CountryCode":"US","Airports":["BWI"],"Lat":"39.175","Long":"-76.668"},{"City":"Bangalore","Country":"India","CountryCode":"IN","Airports":["BLR"],"Lat":"12.95","Long":"77.668"},{"City":"Tampa","Country":"United States","CountryCode":"US","Airports":["TPA"],"Lat":"27.975","Long":"-82.533"},{"City":"Budapest","Country":"Hungary","CountryCode":"HU","Airports":["BUD"],"Lat":"47.437","Long":"19.256"},{"City":"Faro","Country":"Portugal","CountryCode":"PT","Airports":["FAO"],"Lat":"37.014","Long":"-7.966"},{"City":"Tianjin","Country":"China","CountryCode":"CN","Airports":["TSN"],"Lat":"39.124","Long":"117.346"},{"City":"Venice","Country":"Italy","CountryCode":"IT","Airports":["VCE"],"Lat":"45.505","Long":"12.352"},{"City":"Belo Horizonte","Country":"Brazil","CountryCode":"BR","Airports":["CNF"],"Lat":"-19.634","Long":"-43.969"},{"City":"Bristol","Country":"United Kingdom","CountryCode":"GB","Airports":["BRS"],"Lat":"51.383","Long":"-2.719"},{"City":"Fuerteventura","Country":"Spain","CountryCode":"ES","Airports":["FUE"],"Lat":"28.453","Long":"-13.864"},{"City":"Casablanca","Country":"Morocco","CountryCode":"MA","Airports":["CMN"],"Lat":"33.367","Long":"-7.59"},{"City":"Hyderabad","Country":"India","CountryCode":"IN","Airports":["HYD"],"Lat":"17.453","Long":"78.468"},{"City":"Sanya","Country":"China","CountryCode":"CN","Airports":["SYX"],"Lat":"18.303","Long":"109.412"},{"City":"Muscat","Country":"Oman","CountryCode":"OM","Airports":["MCT"],"Lat":"23.593","Long":"58.284"},{"City":"East Midlands","Country":"United Kingdom","CountryCode":"GB","Airports":["EMA"],"Lat":"52.831","Long":"-1.328"},{"City":"Harbin","Country":"China","CountryCode":"CN","Airports":["HRB"],"Lat":"45.623","Long":"126.25"},{"City":"Guiyang","Country":"China","CountryCode":"CN","Airports":["KWE"],"Lat":"26.539","Long":"106.801"},{"City":"Panama City","Country":"Panama","CountryCode":"PA","Airports":["PTY"],"Lat":"9.071","Long":"-79.383"},{"City":"Bucharest","Country":"Romania","CountryCode":"RO","Airports":["OTP"],"Lat":"44.572","Long":"26.102"},{"City":"Haikou","Country":"China","CountryCode":"CN","Airports":["HAK"],"Lat":"19.935","Long":"110.459"},{"City":"Cleveland","Country":"United States","CountryCode":"US","Airports":["CLE"],"Lat":"41.412","Long":"-81.85"},{"City":"Riga","Country":"Latvia","CountryCode":"LV","Airports":["RIX"],"Lat":"56.924","Long":"23.971"},{"City":"Nanning","Country":"China","CountryCode":"CN","Airports":["NNG"],"Lat":"22.608","Long":"108.172"},{"City":"St. Louis","Country":"United States","CountryCode":"US","Airports":["STL"],"Lat":"38.749","Long":"-90.37"},{"City":"Fuzhou","Country":"China","CountryCode":"CN","Airports":["FOC"],"Lat":"25.935","Long":"119.663"},{"City":"Taiyuan","Country":"China","CountryCode":"CN","Airports":["TYN"],"Lat":"37.747","Long":"112.628"},{"City":"Antalya","Country":"Turkey","CountryCode":"TR","Airports":["AYT"],"Lat":"36.899","Long":"30.8"},{"City":"Glasgow","Country":"United Kingdom","CountryCode":"GB","Airports":["GLA"],"Lat":"55.872","Long":"-4.433"},{"City":"Hanoi","Country":"Vietnam","CountryCode":"VN","Airports":["HAN"],"Lat":"21.221","Long":"105.807"},{"City":"Porto","Country":"Portugal","CountryCode":"PT","Airports":["OPO"],"Lat":"41.248","Long":"-8.681"},{"City":"Larnaca","Country":"Cyprus","CountryCode":"CY","Airports":["LCA"],"Lat":"34.875","Long":"33.625"},{"City":"Malta","Country":"Malta","CountryCode":"MT","Airports":["MLA"],"Lat":"35.857","Long":"14.478"},{"City":"Memphis","Country":"United States","CountryCode":"US","Airports":["MEM"],"Lat":"35.042","Long":"-89.977"},{"City":"Busan","Country":"South Korea","CountryCode":"KR","Airports":["PUS"],"Lat":"35.18","Long":"128.938"},{"City":"Toulouse","Country":"France","CountryCode":"FR","Airports":["TLS"],"Lat":"43.629","Long":"1.364"},{"City":"Nagoya","Country":"Japan","CountryCode":"JP","Airports":["NGO"],"Lat":"34.858","Long":"136.805"},{"City":"Basel-Mulhouse-Freiburg","Country":"Switzerland","CountryCode":"CH","Airports":["BSL"],"Lat":"47.59","Long":"7.529"},{"City":"Perth","Country":"Australia","CountryCode":"AU","Airports":["PER"],"Lat":"-31.94","Long":"115.967"},{"City":"San Diego","Country":"United States","CountryCode":"US","Airports":["SAN"],"Lat":"32.734","Long":"-117.19"},{"City":"San Juan","Country":"Puerto Rico","CountryCode":"PR","Airports":["SJU"],"Lat":"18.439","Long":"-66.002"},{"City":"Caracas","Country":"Venezuela","CountryCode":"VE","Airports":["CCS"],"Lat":"10.603","Long":"-66.991"},{"City":"Bologna","Country":"Italy","CountryCode":"IT","Airports":["BLQ"],"Lat":"44.535","Long":"11.289"},{"City":"Colombo","Country":"Sri Lanka","CountryCode":"LK","Airports":["CMB"],"Lat":"7.181","Long":"79.884"},{"City":"Fukuoka","Country":"Japan","CountryCode":"JP","Airports":["FUK"],"Lat":"33.586","Long":"130.451"},{"City":"Tashkent","Country":"Uzbekistan","CountryCode":"UZ","Airports":["TAS"],"Lat":"41.258","Long":"69.281"},{"City":"Beirut","Country":"Lebanon","CountryCode":"LB","Airports":["BEY"],"Lat":"33.821","Long":"35.488"},{"City":"Berlin","Country":"Germany","CountryCode":"DE","Airports":["TXL","SXF"],"Lat":"52.47","Long":"13.405"},{"City":"Cebu","Country":"Philippines","CountryCode":"PH","Airports":["CEB"],"Lat":"10.308","Long":"123.979"},{"City":"Bergamo","Country":"Italy","CountryCode":"IT","Airports":["BGY"],"Lat":"45.674","Long":"9.704"},{"City":"Charleroi","Country":"Belgium","CountryCode":"BE","Airports":["CRL"],"Lat":"50.459","Long":"4.454"},{"City":"Milan","Country":"Italy","CountryCode":"IT","Airports":["LIN"],"Lat":"45.445","Long":"9.277"},{"City":"San Jose","Country":"Costa Rica","CountryCode":"CR","Airports":["SJO","SJC"],"Lat":"23.678","Long":"-103.069"},{"City":"Kansas City","Country":"United States","CountryCode":"US","Airports":["MCI"],"Lat":"39.298","Long":"-94.714"},{"City":"Ottawa","Country":"Canada","CountryCode":"CA","Airports":["YOW"],"Lat":"45.323","Long":"-75.669"},{"City":"Sapporo","Country":"Japan","CountryCode":"JP","Airports":["CTS"],"Lat":"42.775","Long":"141.692"},{"City":"Teheran","Country":"Iran","CountryCode":"IR","Airports":["THR"],"Lat":"35.689","Long":"51.313"},{"City":"Tunis","Country":"Tunisia","CountryCode":"TN","Airports":["TUN"],"Lat":"36.851","Long":"10.227"},{"City":"Nanchang","Country":"China","CountryCode":"CN","Airports":["KHN"],"Lat":"28.865","Long":"115.9"},{"City":"Naples","Country":"Italy","CountryCode":"IT","Airports":["NAP"],"Lat":"40.886","Long":"14.291"},{"City":"Buenos Aires","Country":"Argentina","CountryCode":"AR","Airports":["EZE","AEP"],"Lat":"-34.691","Long":"-58.476"},{"City":"Cincinnati","Country":"United States","CountryCode":"US","Airports":["CVG"],"Lat":"39.049","Long":"-84.668"},{"City":"Salvador","Country":"Brazil","CountryCode":"BR","Airports":["SSA"],"Lat":"-12.911","Long":"-38.331"},{"City":"Sharjah","Country":"United Arab Emirates","CountryCode":"AE","Airports":["SHJ"],"Lat":"25.329","Long":"55.517"},{"City":"Guadalajara","Country":"Mexico","CountryCode":"MX","Airports":["GDL"],"Lat":"20.522","Long":"-103.311"},{"City":"Dammam","Country":"Saudi Arabia","CountryCode":"SA","Airports":["DMM"],"Lat":"26.471","Long":"49.798"},{"City":"Guilin","Country":"China","CountryCode":"CN","Airports":["KWL"],"Lat":"25.218","Long":"110.039"},{"City":"Milwaukee","Country":"United States","CountryCode":"US","Airports":["MKE"],"Lat":"42.947","Long":"-87.897"},{"City":"Newcastle","Country":"United Kingdom","CountryCode":"GB","Airports":["NCL"],"Lat":"55.038","Long":"-1.692"},{"City":"Raleigh-Durham","Country":"United States","CountryCode":"US","Airports":["RDU"],"Lat":"35.878","Long":"-78.787"},{"City":"Catania","Country":"Italy","CountryCode":"IT","Airports":["CTA"],"Lat":"37.467","Long":"15.066"},{"City":"Hannover","Country":"Germany","CountryCode":"DE","Airports":["HAJ"],"Lat":"52.461","Long":"9.685"},{"City":"Sofia","Country":"Bulgaria","CountryCode":"BG","Airports":["SOF"],"Lat":"42.695","Long":"23.406"},{"City":"Leeds","Country":"United Kingdom","CountryCode":"GB","Airports":["LBA"],"Lat":"53.866","Long":"-1.661"},{"City":"Valencia","Country":"Spain","CountryCode":"ES","Airports":["VLC"],"Lat":"39.489","Long":"-0.482"},{"City":"Edmonton","Country":"Canada","CountryCode":"CA","Airports":["YEG"],"Lat":"53.31","Long":"-113.58"},{"City":"Curitiba","Country":"Brazil","CountryCode":"BR","Airports":["CWB"],"Lat":"-25.528","Long":"-49.176"},{"City":"Huhhot","Country":"China","CountryCode":"CN","Airports":["HET"],"Lat":"40.851","Long":"111.824"},{"City":"Sharm El Sheikh","Country":"Egypt","CountryCode":"EG","Airports":["SSH"],"Lat":"27.977","Long":"34.395"},{"City":"Khartoum","Country":"Sudan","CountryCode":"SD","Airports":["KRT"],"Lat":"15.589","Long":"32.553"},{"City":"Porto Alegre","Country":"Brazil","CountryCode":"BR","Airports":["POA"],"Lat":"-29.994","Long":"-51.171"},{"City":"Hefei","Country":"China","CountryCode":"CN","Airports":["HFE"],"Lat":"31.78","Long":"117.298"},{"City":"Beograd","Country":"Serbia","CountryCode":"RS","Airports":["BEG"],"Lat":"44.818","Long":"20.309"},{"City":"Dhaka","Country":"Bangladesh","CountryCode":"BD","Airports":["DAC"],"Lat":"23.843","Long":"90.398"},{"City":"Nassau","Country":"Bahamas","CountryCode":"BS","Airports":["NAS"],"Lat":"25.039","Long":"-77.466"},{"City":"Pisa","Country":"Italy","CountryCode":"IT","Airports":["PSA"],"Lat":"43.684","Long":"10.393"},{"City":"Alma-ata","Country":"Kazakhstan","CountryCode":"KZ","Airports":["ALA"],"Lat":"43.352","Long":"77.041"},{"City":"Baku","Country":"Azerbaijan","CountryCode":"AZ","Airports":["GYD"],"Lat":"40.468","Long":"50.047"},{"City":"Changchun","Country":"China","CountryCode":"CN","Airports":["CGQ"],"Lat":"43.541","Long":"125.12"},{"City":"Fort Myers","Country":"United States","CountryCode":"US","Airports":["RSW"],"Lat":"26.536","Long":"-81.755"},{"City":"Nashville","Country":"United States","CountryCode":"US","Airports":["BNA"],"Lat":"36.124","Long":"-86.678"},{"City":"Pittsburgh","Country":"United States","CountryCode":"US","Airports":["PIT"],"Lat":"40.491","Long":"-80.233"},{"City":"Funchal","Country":"Portugal","CountryCode":"PT","Airports":["FNC"],"Lat":"32.698","Long":"-16.774"},{"City":"Havana","Country":"Cuba","CountryCode":"CU","Airports":["HAV"],"Lat":"22.989","Long":"-82.409"},{"City":"Kathmandu","Country":"Nepal","CountryCode":"NP","Airports":["KTM"],"Lat":"27.697","Long":"85.359"},{"City":"Lagos","Country":"Nigeria","CountryCode":"NG","Airports":["LOS"],"Lat":"6.577","Long":"3.321"},{"City":"Liverpool","Country":"United Kingdom","CountryCode":"GB","Airports":["LPL"],"Lat":"53.334","Long":"-2.85"},{"City":"Ninbo","Country":"China","CountryCode":"CN","Airports":["NGB"],"Lat":"29.827","Long":"121.462"},{"City":"Novosibirsk","Country":"Russia","CountryCode":"RU","Airports":["OVB"],"Lat":"55.013","Long":"82.651"},{"City":"Sverdlovsk","Country":"Russia","CountryCode":"RU","Airports":["SVX"],"Lat":"56.743","Long":"60.803"},{"City":"Anchorage","Country":"United States","CountryCode":"US","Airports":["ANC"],"Lat":"61.174","Long":"-149.996"},{"City":"Punta Cana","Country":"Dominican Republic","CountryCode":"DO","Airports":["PUJ"],"Lat":"18.567","Long":"-68.363"},{"City":"San Salvador","Country":"El Salvador","CountryCode":"SV","Airports":["SAL"],"Lat":"13.441","Long":"-89.056"},{"City":"Wenzhou","Country":"China","CountryCode":"CN","Airports":["WNZ"],"Lat":"27.912","Long":"120.852"},{"City":"Algier","Country":"Algeria","CountryCode":"DZ","Airports":["ALG"],"Lat":"36.691","Long":"3.215"},{"City":"Denpasar","Country":"Indonesia","CountryCode":"ID","Airports":["DPS"],"Lat":"-8.748","Long":"115.167"},{"City":"Kaohsiung","Country":"Taiwan","CountryCode":"TW","Airports":["KHH"],"Lat":"22.577","Long":"120.35"},{"City":"Yerevan","Country":"Armenia","CountryCode":"AM","Airports":["EVN"],"Lat":"40.147","Long":"44.396"},{"City":"Krakow","Country":"Poland","CountryCode":"PL","Airports":["KRK"],"Lat":"50.078","Long":"19.785"},{"City":"New Orleans","Country":"United States","CountryCode":"US","Airports":["MSY"],"Lat":"29.993","Long":"-90.258"},{"City":"Austin","Country":"United States","CountryCode":"US","Airports":["AUS"],"Lat":"30.195","Long":"-97.67"},{"City":"Halifax","Country":"Canada","CountryCode":"CA","Airports":["YHZ"],"Lat":"44.881","Long":"-63.509"},{"City":"Nantes","Country":"France","CountryCode":"FR","Airports":["NTE"],"Lat":"47.153","Long":"-1.611"},{"City":"Tehran","Country":"Iran","CountryCode":"IR","Airports":["IKA"],"Lat":"35","Long":"51"},{"City":"Kahului","Country":"United States","CountryCode":"US","Airports":["OGG"],"Lat":"20.899","Long":"-156.43"},{"City":"Karachi","Country":"Pakistan","CountryCode":"PK","Airports":["KHI"],"Lat":"24.907","Long":"67.161"},{"City":"Kochi","Country":"India","CountryCode":"IN","Airports":["COK"],"Lat":"10.156","Long":"76.391"},{"City":"Luxemburg","Country":"Luxembourg","CountryCode":"LU","Airports":["LUX"],"Lat":"49.627","Long":"6.212"},{"City":"Okinawa","Country":"Japan","CountryCode":"JP","Airports":["OKA"],"Lat":"26.196","Long":"127.646"},{"City":"Sao Paulo","Country":"Brazil","CountryCode":"BR","Airports":["GRU","CGH"],"Lat":"-23.529","Long":"-46.562"},{"City":"Macau","Country":"Macau","CountryCode":"MO","Airports":["MFM"],"Lat":"22.15","Long":"113.592"},{"City":"Monterrey","Country":"Mexico","CountryCode":"MX","Airports":["MTY"],"Lat":"25.778","Long":"-100.107"},{"City":"Tallinn-ulemiste International","Country":"Estonia","CountryCode":"EE","Airports":["TLL"],"Lat":"59.413","Long":"24.833"},{"City":"Gothenborg","Country":"Sweden","CountryCode":"SE","Airports":["GOT"],"Lat":"57.663","Long":"12.28"},{"City":"Phuket","Country":"Thailand","CountryCode":"TH","Airports":["HKT"],"Lat":"8.113","Long":"98.317"},{"City":"Puerto Vallarta","Country":"Mexico","CountryCode":"MX","Airports":["PVR"],"Lat":"20.68","Long":"-105.254"},{"City":"Sevilla","Country":"Spain","CountryCode":"ES","Airports":["SVQ"],"Lat":"37.418","Long":"-5.893"},{"City":"Montego Bay","Country":"Jamaica","CountryCode":"JM","Airports":["MBJ"],"Lat":"18.504","Long":"-77.913"},{"City":"Thessaloniki","Country":"Greece","CountryCode":"GR","Airports":["SKG"],"Lat":"40.52","Long":"22.971"},{"City":"Bari","Country":"Italy","CountryCode":"IT","Airports":["BRI"],"Lat":"41.139","Long":"16.761"},{"City":"Campinas","Country":"Brazil","CountryCode":"BR","Airports":["VCP"],"Lat":"-23.008","Long":"-47.134"},{"City":"Gerona","Country":"Spain","CountryCode":"ES","Airports":["GRO"],"Lat":"41.901","Long":"2.761"},{"City":"Indianapolis","Country":"United States","CountryCode":"US","Airports":["IND"],"Lat":"39.717","Long":"-86.294"},{"City":"Belem","Country":"Brazil","CountryCode":"BR","Airports":["BEL"],"Lat":"-1.379","Long":"-48.476"},{"City":"Bergen","Country":"Norway","CountryCode":"NO","Airports":["BGO"],"Lat":"60.293","Long":"5.218"},{"City":"Hahn","Country":"Germany","CountryCode":"DE","Airports":["HHN"],"Lat":"49.949","Long":"7.264"},{"City":"Lanzhou","Country":"China","CountryCode":"CN","Airports":["LHW"],"Lat":"36.117","Long":"103.617"},{"City":"Nuernberg","Country":"Germany","CountryCode":"DE","Airports":["NUE"],"Lat":"49.499","Long":"11.067"},{"City":"Recife","Country":"Brazil","CountryCode":"BR","Airports":["REC"],"Lat":"-8.127","Long":"-34.923"},{"City":"San Antonio","Country":"United States","CountryCode":"US","Airports":["SAT"],"Lat":"29.534","Long":"-98.47"},{"City":"Columbus","Country":"United States","CountryCode":"US","Airports":["CMH"],"Lat":"39.998","Long":"-82.892"},{"City":"Hurghada","Country":"Egypt","CountryCode":"EG","Airports":["HRG"],"Lat":"27.178","Long":"33.799"},{"City":"Plaisance","Country":"Mauritius","CountryCode":"MU","Airports":["MRU"],"Lat":"-20.43","Long":"57.684"},{"City":"Douala","Country":"Cameroon","CountryCode":"CM","Airports":["DLA"],"Lat":"4.006","Long":"9.719"},{"City":"Eindhoven","Country":"Netherlands","CountryCode":"NL","Airports":["EIN"],"Lat":"51.45","Long":"5.375"},{"City":"Luanda","Country":"Angola","CountryCode":"AO","Airports":["LAD"],"Lat":"-8.858","Long":"13.231"},{"City":"Minsk 2","Country":"Belarus","CountryCode":"BY","Airports":["MSQ"],"Lat":"53.882","Long":"28.031"},{"City":"Palermo","Country":"Italy","CountryCode":"IT","Airports":["PMO"],"Lat":"38.176","Long":"13.091"},{"City":"San Jose Del Cabo","Country":"Mexico","CountryCode":"MX","Airports":["SJD"],"Lat":"23.152","Long":"-109.721"},{"City":"Ankara","Country":"Turkey","CountryCode":"TR","Airports":["ESB"],"Lat":"40.128","Long":"32.995"},{"City":"Islamabad","Country":"Pakistan","CountryCode":"PK","Airports":["ISB"],"Lat":"33.617","Long":"73.099"},{"City":"Cairns","Country":"Australia","CountryCode":"AU","Airports":["CNS"],"Lat":"-16.886","Long":"145.755"},{"City":"Cape Town","Country":"South Africa","CountryCode":"ZA","Airports":["CPT"],"Lat":"-33.965","Long":"18.602"},{"City":"Manaus","Country":"Brazil","CountryCode":"BR","Airports":["MAO"],"Lat":"-3.039","Long":"-60.05"},{"City":"Paphos","Country":"Cyprus","CountryCode":"CY","Airports":["PFO"],"Lat":"34.718","Long":"32.486"},{"City":"Sacramento","Country":"United States","CountryCode":"US","Airports":["SMF"],"Lat":"38.695","Long":"-121.591"},{"City":"Aberdeen","Country":"United Kingdom","CountryCode":"GB","Airports":["ABZ"],"Lat":"57.202","Long":"-2.198"},{"City":"Beauvais","Country":"France","CountryCode":"FR","Airports":["BVA"],"Lat":"49.454","Long":"2.113"},{"City":"Cheju","Country":"South Korea","CountryCode":"KR","Airports":["CJU"],"Lat":"33.511","Long":"126.493"},{"City":"Mashhad","Country":"Iran","CountryCode":"IR","Airports":["MHD"],"Lat":"36","Long":"59"},{"City":"Oakland","Country":"United States","CountryCode":"US","Airports":["OAK"],"Lat":"37.721","Long":"-122.221"},{"City":"Shijiazhuang","Country":"China","CountryCode":"CN","Airports":["SJW"],"Lat":"38.281","Long":"114.697"},{"City":"Bordeaux","Country":"France","CountryCode":"FR","Airports":["BOD"],"Lat":"44.828","Long":"-0.716"},{"City":"Christchurch","Country":"New Zealand","CountryCode":"NZ","Airports":["CHC"],"Lat":"-43.489","Long":"172.532"},{"City":"Dar Es Salaam","Country":"Tanzania","CountryCode":"TZ","Airports":["DAR"],"Lat":"-6.878","Long":"39.203"},{"City":"Heraklion","Country":"Greece","CountryCode":"GR","Airports":["HER"],"Lat":"35.34","Long":"25.18"},{"City":"Lahore","Country":"Pakistan","CountryCode":"PK","Airports":["LHE"],"Lat":"31.522","Long":"74.404"},{"City":"Torino","Country":"Italy","CountryCode":"IT","Airports":["TRN"],"Lat":"45.201","Long":"7.65"},{"City":"Winnipeg","Country":"Canada","CountryCode":"CA","Airports":["YWG"],"Lat":"49.91","Long":"-97.24"},{"City":"Yinchuan","Country":"China","CountryCode":"CN","Airports":["INC"],"Lat":"38.482","Long":"106.009"},{"City":"Accra","Country":"Ghana","CountryCode":"GH","Airports":["ACC"],"Lat":"5.605","Long":"-0.167"},{"City":"Bilbao","Country":"Spain","CountryCode":"ES","Airports":["BIO"],"Lat":"43.301","Long":"-2.911"},{"City":"Cagliari","Country":"Italy","CountryCode":"IT","Airports":["CAG"],"Lat":"39.251","Long":"9.054"},{"City":"Cuiaba","Country":"Brazil","CountryCode":"BR","Airports":["CGB"],"Lat":"-15.653","Long":"-56.117"},{"City":"Gdansk","Country":"Poland","CountryCode":"PL","Airports":["GDN"],"Lat":"54.378","Long":"18.466"},{"City":"Guayaquil","Country":"Ecuador","CountryCode":"EC","Airports":["GYE"],"Lat":"-2.157","Long":"-79.884"},{"City":"Darwin","Country":"Australia","CountryCode":"AU","Airports":["DRW"],"Lat":"-12.408","Long":"130.873"},{"City":"Khabarovsk","Country":"Russia","CountryCode":"RU","Airports":["KHV"],"Lat":"48.528","Long":"135.188"},{"City":"Rio De Janeiro","Country":"Brazil","CountryCode":"BR","Airports":["GIG","SDU"],"Lat":"-22.86","Long":"-43.203"},{"City":"Timisoara","Country":"Romania","CountryCode":"RO","Airports":["TSR"],"Lat":"45.81","Long":"21.338"},{"City":"Windsor Locks","Country":"United States","CountryCode":"US","Airports":["BDL"],"Lat":"41.939","Long":"-72.683"},{"City":"Dakar","Country":"Senegal","CountryCode":"SN","Airports":["DKR"],"Lat":"14.74","Long":"-17.49"},{"City":"Dushanbe","Country":"Tajikistan","CountryCode":"TJ","Airports":["DYU"],"Lat":"38.543","Long":"68.825"},{"City":"Nandi","Country":"Fiji","CountryCode":"FJ","Airports":["NAN"],"Lat":"-17.755","Long":"177.443"},{"City":"Philipsburg","Country":"Netherlands Antilles","CountryCode":"AN","Airports":["SXM"],"Lat":"18.041","Long":"-63.109"},{"City":"Port Moresby","Country":"Papua New Guinea","CountryCode":"PG","Airports":["POM"],"Lat":"-9.443","Long":"147.22"},{"City":"Sanford","Country":"United States","CountryCode":"US","Airports":["SFB"],"Lat":"28.778","Long":"-81.237"},{"City":"Trivandrum","Country":"India","CountryCode":"IN","Airports":["TRV"],"Lat":"8.482","Long":"76.92"},{"City":"Villafranca","Country":"Italy","CountryCode":"IT","Airports":["VRN"],"Lat":"45.396","Long":"10.889"},{"City":"Yantai","Country":"China","CountryCode":"CN","Airports":["YNT"],"Lat":"37.402","Long":"121.372"},{"City":"Zagreb","Country":"Croatia","CountryCode":"HR","Airports":["ZAG"],"Lat":"45.743","Long":"16.069"},{"City":"Albuquerque","Country":"United States","CountryCode":"US","Airports":["ABQ"],"Lat":"35.04","Long":"-106.609"},{"City":"Kota Kinabalu","Country":"Malaysia","CountryCode":"MY","Airports":["BKI"],"Lat":"5.937","Long":"116.051"},{"City":"Sanaa","Country":"Yemen","CountryCode":"YE","Airports":["SAH"],"Lat":"15.476","Long":"44.22"},{"City":"Adelaide","Country":"Australia","CountryCode":"AU","Airports":["ADL"],"Lat":"-34.945","Long":"138.531"},{"City":"Fortaleza","Country":"Brazil","CountryCode":"BR","Airports":["FOR"],"Lat":"-3.776","Long":"-38.533"},{"City":"Papeete","Country":"French Polynesia","CountryCode":"PF","Airports":["PPT"],"Lat":"-17.557","Long":"-149.611"},{"City":"Agana","Country":"Guam","CountryCode":"GU","Airports":["GUM"],"Lat":"13.483","Long":"144.796"},{"City":"Ahmedabad","Country":"India","CountryCode":"IN","Airports":["AMD"],"Lat":"23.077","Long":"72.635"},{"City":"Kigali","Country":"Rwanda","CountryCode":"RW","Airports":["KGL"],"Lat":"-1.969","Long":"30.139"},{"City":"Rome","Country":"Italy","CountryCode":"IT","Airports":["FCO","CIA"],"Lat":"41.802","Long":"12.423"},{"City":"Weeze","Country":"Germany","CountryCode":"DE","Airports":["NRN"],"Lat":"51.602","Long":"6.142"},{"City":"Wuxi","Country":"China","CountryCode":"CN","Airports":["WUX"],"Lat":"31.494","Long":"120.429"},{"City":"Billund","Country":"Denmark","CountryCode":"DK","Airports":["BLL"],"Lat":"55.74","Long":"9.152"},{"City":"Bremen","Country":"Germany","CountryCode":"DE","Airports":["BRE"],"Lat":"53.048","Long":"8.787"},{"City":"Cotonou","Country":"Benin","CountryCode":"BJ","Airports":["COO"],"Lat":"6.357","Long":"2.384"},{"City":"Krasnodar","Country":"Russia","CountryCode":"RU","Airports":["KRR"],"Lat":"45.035","Long":"39.171"},{"City":"Southampton","Country":"United Kingdom","CountryCode":"GB","Airports":["SOU"],"Lat":"50.95","Long":"-1.357"},{"City":"Vladivostok","Country":"Russia","CountryCode":"RU","Airports":["VVO"],"Lat":"43.399","Long":"132.148"},{"City":"Wellington","Country":"New Zealand","CountryCode":"NZ","Airports":["WLG"],"Lat":"-41.327","Long":"174.805"},{"City":"Marrakech","Country":"Morocco","CountryCode":"MA","Airports":["RAK"],"Lat":"31.607","Long":"-8.036"},{"City":"Quito","Country":"Ecuador","CountryCode":"EC","Airports":["UIO"],"Lat":"-0.141","Long":"-78.488"},{"City":"Stavanger","Country":"Norway","CountryCode":"NO","Airports":["SVG"],"Lat":"58.877","Long":"5.638"},{"City":"Tselinograd","Country":"Kazakhstan","CountryCode":"KZ","Airports":["TSE"],"Lat":"51.022","Long":"71.467"},{"City":"Yangon","Country":"Burma","CountryCode":"MM","Airports":["RGN"],"Lat":"16.907","Long":"96.133"},{"City":"Buffalo","Country":"United States","CountryCode":"US","Airports":["BUF"],"Lat":"42.941","Long":"-78.732"},{"City":"Guwahati","Country":"India","CountryCode":"IN","Airports":["GAU"],"Lat":"26.106","Long":"91.586"},{"City":"Ibiza","Country":"Spain","CountryCode":"ES","Airports":["IBZ"],"Lat":"38.873","Long":"1.373"},{"City":"Santa Ana","Country":"United States","CountryCode":"US","Airports":["SNA"],"Lat":"33.676","Long":"-117.868"},{"City":"Shiraz","Country":"Iran","CountryCode":"IR","Airports":["SYZ"],"Lat":"29.539","Long":"52.59"},{"City":"Trondheim","Country":"Norway","CountryCode":"NO","Airports":["TRD"],"Lat":"63.458","Long":"10.924"},{"City":"Wroclaw","Country":"Poland","CountryCode":"PL","Airports":["WRO"],"Lat":"51.103","Long":"16.886"},{"City":"Cork","Country":"Ireland","CountryCode":"IE","Airports":["ORK"],"Lat":"51.841","Long":"-8.491"},{"City":"Goiania","Country":"Brazil","CountryCode":"BR","Airports":["GYN"],"Lat":"-16.632","Long":"-49.221"},{"City":"Izmir","Country":"Turkey","CountryCode":"TR","Airports":["ADB"],"Lat":"38.292","Long":"27.157"},{"City":"Jacksonville","Country":"United States","CountryCode":"US","Airports":["JAX"],"Lat":"30.494","Long":"-81.688"},{"City":"Penang","Country":"Malaysia","CountryCode":"MY","Airports":["PEN"],"Lat":"5.297","Long":"100.277"},{"City":"Salzburg","Country":"Austria","CountryCode":"AT","Airports":["SZG"],"Lat":"47.793","Long":"13.004"},{"City":"Santo Domingo","Country":"Dominican Republic","CountryCode":"DO","Airports":["SDQ"],"Lat":"18.43","Long":"-69.669"},{"City":"Tirana","Country":"Albania","CountryCode":"AL","Airports":["TIA"],"Lat":"41.415","Long":"19.721"},{"City":"Vilnius","Country":"Lithuania","CountryCode":"LT","Airports":["VNO"],"Lat":"54.634","Long":"25.286"},{"City":"Abidjan","Country":"Cote d'Ivoire","CountryCode":"CI","Airports":["ABJ"],"Lat":"5.261","Long":"-3.926"},{"City":"Bamako","Country":"Mali","CountryCode":"ML","Airports":["BKO"],"Lat":"12.534","Long":"-7.95"},{"City":"Entebbe","Country":"Uganda","CountryCode":"UG","Airports":["EBB"],"Lat":"0.042","Long":"32.444"},{"City":"Firenze","Country":"Italy","CountryCode":"IT","Airports":["FLR"],"Lat":"43.81","Long":"11.205"},{"City":"Guatemala City","Country":"Guatemala","CountryCode":"GT","Airports":["GUA"],"Lat":"14.583","Long":"-90.527"},{"City":"Krasnoyarsk","Country":"Russia","CountryCode":"RU","Airports":["KJA"],"Lat":"56.18","Long":"92.475"},{"City":"Oranjestad","Country":"Aruba","CountryCode":"AW","Airports":["AUA"],"Lat":"12.501","Long":"-70.015"},{"City":"Treviso","Country":"Italy","CountryCode":"IT","Airports":["TSF"],"Lat":"45.648","Long":"12.194"},{"City":"Alexandria","Country":"Egypt","CountryCode":"EG","Airports":["HBE"],"Lat":"30.918","Long":"29.696"},{"City":"Goa","Country":"India","CountryCode":"IN","Airports":["GOI"],"Lat":"15.381","Long":"73.831"},{"City":"Omaha","Country":"United States","CountryCode":"US","Airports":["OMA"],"Lat":"41.303","Long":"-95.894"},{"City":"Rhodos","Country":"Greece","CountryCode":"GR","Airports":["RHO"],"Lat":"36.405","Long":"28.086"},{"City":"Rygge","Country":"Norway","CountryCode":"NO","Airports":["RYG"],"Lat":"59.379","Long":"10.785"},{"City":"Sendai","Country":"Japan","CountryCode":"JP","Airports":["SDJ"],"Lat":"38.14","Long":"140.917"},{"City":"Ujung Pandang","Country":"Indonesia","CountryCode":"ID","Airports":["UPG"],"Lat":"-5.062","Long":"119.554"},{"City":"Abuja","Country":"Nigeria","CountryCode":"NG","Airports":["ABV"],"Lat":"9.007","Long":"7.263"},{"City":"Campo Grande","Country":"Brazil","CountryCode":"BR","Airports":["CGR"],"Lat":"-20.469","Long":"-54.673"},{"City":"Chingchuakang","Country":"Taiwan","CountryCode":"TW","Airports":["RMQ"],"Lat":"24.265","Long":"120.621"},{"City":"Male","Country":"Maldives","CountryCode":"MV","Airports":["MLE"],"Lat":"4.192","Long":"73.529"},{"City":"Poznan","Country":"Poland","CountryCode":"PL","Airports":["POZ"],"Lat":"52.421","Long":"16.826"},{"City":"Sandefjord","Country":"Norway","CountryCode":"NO","Airports":["TRF"],"Lat":"59.187","Long":"10.259"},{"City":"West Palm Beach","Country":"United States","CountryCode":"US","Airports":["PBI"],"Lat":"26.683","Long":"-80.096"},{"City":"Antigua","Country":"Antigua and Barbuda","CountryCode":"AG","Airports":["ANU"],"Lat":"17.137","Long":"-61.793"},{"City":"Enfidha","Country":"Tunisia","CountryCode":"TN","Airports":["NBE"],"Lat":"36.076","Long":"10.439"},{"City":"Katowice","Country":"Poland","CountryCode":"PL","Airports":["KTW"],"Lat":"50.474","Long":"19.08"},{"City":"Ljubliana","Country":"Slovenia","CountryCode":"SI","Airports":["LJU"],"Lat":"46.224","Long":"14.458"},{"City":"Louisville","Country":"United States","CountryCode":"US","Airports":["SDF"],"Lat":"38.174","Long":"-85.736"},{"City":"Pune","Country":"India","CountryCode":"IN","Airports":["PNQ"],"Lat":"18.582","Long":"73.92"},{"City":"Surabaya","Country":"Indonesia","CountryCode":"ID","Airports":["SUB"],"Lat":"-7.38","Long":"112.787"},{"City":"Florianopolis","Country":"Brazil","CountryCode":"BR","Airports":["FLN"],"Lat":"-27.67","Long":"-48.547"},{"City":"Kona","Country":"United States","CountryCode":"US","Airports":["KOA"],"Lat":"19.739","Long":"-156.046"},{"City":"Lijiang","Country":"China","CountryCode":"CN","Airports":["LJG"],"Lat":"26.883","Long":"100.233"},{"City":"Montevideo","Country":"Uruguay","CountryCode":"UY","Airports":["MVD"],"Lat":"-34.838","Long":"-56.031"},{"City":"Pristina","Country":"Serbia","CountryCode":"RS","Airports":["PRN"],"Lat":"42.573","Long":"21.036"},{"City":"Richmond","Country":"United States","CountryCode":"US","Airports":["RIC"],"Lat":"37.505","Long":"-77.32"},{"City":"Willemstad","Country":"Netherlands Antilles","CountryCode":"AN","Airports":["CUR"],"Lat":"12.189","Long":"-68.96"},{"City":"Alghero","Country":"Italy","CountryCode":"IT","Airports":["AHO"],"Lat":"40.632","Long":"8.291"},{"City":"Antananarivo","Country":"Madagascar","CountryCode":"MG","Airports":["TNR"],"Lat":"-18.797","Long":"47.479"},{"City":"Bishkek","Country":"Kyrgyzstan","CountryCode":"KG","Airports":["FRU"],"Lat":"43.061","Long":"74.478"},{"City":"Grand Rapids","Country":"United States","CountryCode":"US","Airports":["GRR"],"Lat":"42.881","Long":"-85.523"},{"City":"Mesa","Country":"United States","CountryCode":"US","Airports":["AZA"],"Lat":"33.308","Long":"-111.655"},{"City":"Mombasa","Country":"Kenya","CountryCode":"KE","Airports":["MBA"],"Lat":"-4.035","Long":"39.594"},{"City":"Oklahoma City","Country":"United States","CountryCode":"US","Airports":["OKC"],"Lat":"35.393","Long":"-97.601"},{"City":"Peshawar","Country":"Pakistan","CountryCode":"PK","Airports":["PEW"],"Lat":"33.994","Long":"71.515"},{"City":"Port-vila","Country":"Vanuatu","CountryCode":"VU","Airports":["VLI"],"Lat":"-17.699","Long":"168.32"},{"City":"Quanzhou","Country":"China","CountryCode":"CN","Airports":["JJN"],"Lat":"24.796","Long":"118.59"},{"City":"Vitoria","Country":"Brazil","CountryCode":"BR","Airports":["VIX"],"Lat":"-20.258","Long":"-40.286"},{"City":"Belfast","Country":"United Kingdom","CountryCode":"GB","Airports":["BFS","BHD"],"Lat":"54.638","Long":"-6.044"},{"City":"Calicut","Country":"India","CountryCode":"IN","Airports":["CCJ"],"Lat":"11.137","Long":"75.955"},{"City":"Cardiff","Country":"United Kingdom","CountryCode":"GB","Airports":["CWL"],"Lat":"51.397","Long":"-3.343"},{"City":"Fairbanks","Country":"United States","CountryCode":"US","Airports":["FAI"],"Lat":"64.815","Long":"-147.856"},{"City":"Irkutsk","Country":"Russia","CountryCode":"RU","Airports":["IKT"],"Lat":"52.268","Long":"104.389"},{"City":"Kabul","Country":"Afghanistan","CountryCode":"AF","Airports":["KBL"],"Lat":"34.566","Long":"69.212"},{"City":"Palm Springs","Country":"United States","CountryCode":"US","Airports":["PSP"],"Lat":"33.83","Long":"-116.507"},{"City":"Tbilisi","Country":"Georgia","CountryCode":"GE","Airports":["TBS"],"Lat":"41.669","Long":"44.955"},{"City":"Xining","Country":"China","CountryCode":"CN","Airports":["XNN"],"Lat":"36.528","Long":"102.043"},{"City":"Bridgetown","Country":"Barbados","CountryCode":"BB","Airports":["BGI"],"Lat":"13.075","Long":"-59.492"},{"City":"Coolangatta","Country":"Australia","CountryCode":"AU","Airports":["OOL"],"Lat":"-28.164","Long":"153.505"},{"City":"Djerba","Country":"Tunisia","CountryCode":"TN","Airports":["DJE"],"Lat":"33.875","Long":"10.775"},{"City":"Dortmund","Country":"Germany","CountryCode":"DE","Airports":["DTM"],"Lat":"51.518","Long":"7.612"},{"City":"Jersey","Country":"Jersey","CountryCode":"JE","Airports":["JER"],"Lat":"49.208","Long":"-2.196"},{"City":"Kazan","Country":"Russia","CountryCode":"RU","Airports":["KZN"],"Lat":"55.606","Long":"49.279"},{"City":"Khudzhand","Country":"Tajikistan","CountryCode":"TJ","Airports":["LBD"],"Lat":"40.215","Long":"69.695"},{"City":"Santa Cruz","Country":"Bolivia","CountryCode":"BO","Airports":["VVI"],"Lat":"-17.645","Long":"-63.135"},{"City":"Tijuana","Country":"Mexico","CountryCode":"MX","Airports":["TIJ"],"Lat":"32.541","Long":"-116.97"},{"City":"Trapani","Country":"Italy","CountryCode":"IT","Airports":["TPS"],"Lat":"37.911","Long":"12.488"},{"City":"Tulsa","Country":"United States","CountryCode":"US","Airports":["TUL"],"Lat":"36.198","Long":"-95.888"},{"City":"Agadir","Country":"Morocco","CountryCode":"MA","Airports":["AGA"],"Lat":"30.381","Long":"-9.546"},{"City":"Bethel","Country":"United States","CountryCode":"US","Airports":["BET"],"Lat":"60.78","Long":"-161.838"},{"City":"Birmingham","Country":"United States","CountryCode":"US","Airports":["BHM"],"Lat":"33.563","Long":"-86.754"},{"City":"Kuching","Country":"Malaysia","CountryCode":"MY","Airports":["KCH"],"Lat":"1.485","Long":"110.347"},{"City":"Norfolk","Country":"United States","CountryCode":"US","Airports":["ORF"],"Lat":"36.895","Long":"-76.201"},{"City":"Olbia","Country":"Italy","CountryCode":"IT","Airports":["OLB"],"Lat":"40.899","Long":"9.518"},{"City":"Ouagadougou","Country":"Burkina Faso","CountryCode":"BF","Airports":["OUA"],"Lat":"12.353","Long":"-1.512"},{"City":"Port-of-spain","Country":"Trinidad and Tobago","CountryCode":"TT","Airports":["POS"],"Lat":"10.595","Long":"-61.337"},{"City":"Rochester","Country":"United States","CountryCode":"US","Airports":["ROC"],"Lat":"43.119","Long":"-77.672"},{"City":"Shantou","Country":"China","CountryCode":"CN","Airports":["SWA"],"Lat":"23.4","Long":"116.683"},{"City":"Ufa","Country":"Russia","CountryCode":"RU","Airports":["UFA"],"Lat":"54.558","Long":"55.874"},{"City":"Aden","Country":"Yemen","CountryCode":"YE","Airports":["ADE"],"Lat":"12.83","Long":"45.029"},{"City":"Albany","Country":"United States","CountryCode":"US","Airports":["ALB"],"Lat":"42.748","Long":"-73.802"},{"City":"Dongsheng","Country":"China","CountryCode":"CN","Airports":["DSN"],"Lat":"39.85","Long":"110.033"},{"City":"Exeter","Country":"United Kingdom","CountryCode":"GB","Airports":["EXT"],"Lat":"50.734","Long":"-3.414"},{"City":"Indore","Country":"India","CountryCode":"IN","Airports":["IDR"],"Lat":"22.722","Long":"75.801"},{"City":"Jaipur","Country":"India","CountryCode":"IN","Airports":["JAI"],"Lat":"26.824","Long":"75.812"},{"City":"Kilimanjaro","Country":"Tanzania","CountryCode":"TZ","Airports":["JRO"],"Lat":"-3.429","Long":"37.074"},{"City":"Quebec","Country":"Canada","CountryCode":"CA","Airports":["YQB"],"Lat":"46.791","Long":"-71.393"},{"City":"Reno","Country":"United States","CountryCode":"US","Airports":["RNO"],"Lat":"39.499","Long":"-119.768"},{"City":"Samara","Country":"Russia","CountryCode":"RU","Airports":["KUF"],"Lat":"53.5","Long":"50.15"},{"City":"Santiago","Country":"Spain","CountryCode":"ES","Airports":["SCL","SCQ"],"Lat":"4.752","Long":"-39.6"},{"City":"Yellowknife","Country":"Canada","CountryCode":"CA","Airports":["YZF"],"Lat":"62.463","Long":"-114.44"},{"City":"Chiang Mai","Country":"Thailand","CountryCode":"TH","Airports":["CNX"],"Lat":"18.767","Long":"98.963"},{"City":"Honiara","Country":"Solomon Islands","CountryCode":"SB","Airports":["HIR"],"Lat":"-9.428","Long":"160.055"},{"City":"Keflavik","Country":"Iceland","CountryCode":"IS","Airports":["KEF"],"Lat":"63.985","Long":"-22.606"},{"City":"Libreville","Country":"Gabon","CountryCode":"GA","Airports":["LBV"],"Lat":"0.459","Long":"9.412"},{"City":"Londrina","Country":"Brazil","CountryCode":"BR","Airports":["LDB"],"Lat":"-23.334","Long":"-51.13"},{"City":"Madinah","Country":"Saudi Arabia","CountryCode":"SA","Airports":["MED"],"Lat":"24.553","Long":"39.705"},{"City":"Phnom-penh","Country":"Cambodia","CountryCode":"KH","Airports":["PNH"],"Lat":"11.547","Long":"104.844"},{"City":"Prestwick","Country":"United Kingdom","CountryCode":"GB","Airports":["PIK"],"Lat":"55.509","Long":"-4.587"},{"City":"Providence","Country":"United States","CountryCode":"US","Airports":["PVD"],"Lat":"41.733","Long":"-71.42"},{"City":"Providenciales","Country":"Turks and Caicos Islands","CountryCode":"TC","Airports":["PLS"],"Lat":"21.774","Long":"-72.266"},{"City":"Rostov","Country":"Russia","CountryCode":"RU","Airports":["ROV"],"Lat":"47.258","Long":"39.818"},{"City":"Sao Luis","Country":"Brazil","CountryCode":"BR","Airports":["SLZ"],"Lat":"-2.585","Long":"-44.234"},{"City":"Siem-reap","Country":"Cambodia","CountryCode":"KH","Airports":["REP"],"Lat":"13.411","Long":"103.813"},{"City":"Syracuse","Country":"United States","CountryCode":"US","Airports":["SYR"],"Lat":"43.111","Long":"-76.106"},{"City":"Zhuhai","Country":"China","CountryCode":"CN","Airports":["ZUH"],"Lat":"22.006","Long":"113.376"}]